"City","Country","lat","lon","Number of facilities"
"Aarhus","Denmark",56.14597,10.19845,1
"Almere","Netherlands",52.3829,5.2887,1
"Amsterdam","Netherlands",52.414,4.90793,3
"Apeldoorn","Netherlands",52.1813,6.0082700000000004,1
"Arnhem","Netherlands",51.98497,5.899034,1
"Athens","Greece",38,23.7,1
"Badalona","Spain",41.450142,2.24742,1
"Barcelona","Spain",41.3825,2.1769,9
"Bergen","Norway",60.3954,5.33062,1
"Berlin","Germany",52.504671,13.3945135,3
"Bielefeld","Germany",52.02656,8.540516,1
"Bilbao","Spain",43.2569,-2.9236,1
"Bochum","Germany",51.4815,7.2244,1
"Bonn","Germany",50.78,7.1778,1
"Brussels","Belgium",50.84,4.35,1
"Copenhagen","Denmark",55.67453,12.5677,2
"Deventer","Netherlands",52.29638,6.178408,1
"Dortmund","Germany",51.56247,7.45377,1
"Düsseldorf","Germany",51.2397,6.6778,1
"Enschede","Netherlands",52.1988,6.87604,1
"Esch-sur-Alzette","Luxembourg",49.50245,5.97222,1
"Essen","Germany",51.4798,7.0569,1
"Frankfurt","Germany",50.20948,8.76,4
"Haarlem","Netherlands",52.389,4.6896,1
"Hamburg","Germany",53.56828,9.999227,5
"Hannover","Germany",52.37608,9.73263,1
"Heerlen","Netherlands",50.8888,5.9811,1
"Karlsruhe","Germany",49.012,8.390306,1
"Köln","Germany",50.93167,6.949464,1
"Leeuwarden","Netherlands",53.1987,5.8322,1
"Leiden","Netherlands",52.1597,4.4811544,1
"Liege","Belgium",50.6278,5.57459,1
"Lisbon","Portugal",38.716311,-9.142432,2
"Lleida","Spain",41.61898,0.6201,1
"Luxembourg","Luxembourg",49.6503,6.2512,1
"Maastricht","Netherlands",50.8541,5.69063,1
"Münster","Germany",51.95222,7.623233,1
"Nijmegen","Netherlands",51.81272,5.842056,2
"Odense","Denmark",55.39509,10.38202,1
"Oslo","Norway",59.920979,10.753526,1
"Paris","France",48.8539,2.34879,1
"Porto","Portugal",41.149,-8.61,1
"Reus","Spain",41.14994,1.10571,2
"Roermond","Netherlands",51.2248,5.9753,1
"Rotterdam","Netherlands",51.8882,4.6136,4
"s-Hertogenbosch","Netherlands",51.69714,5.305474,1
"Saarbrücken","Germany",49.24041,6.98665,1
"Sant Adrià de Besòs","Spain",41.430599,2.21824,1
"Strasbourg","France",48.579,7.73633,1
"Tarragona","Spain",41.1186,1.24047,1
"Tilburg","Netherlands",51.60593,5.14963,1
"Troisdorf","Germany",50.818,7.14125,1
"Utrecht","Netherlands",52.086,5.1127,1
"Vejle","Denmark",55.70232,9.522832,1
"Vlissingen","Netherlands",51.42818,3.52915,1
"Wuppertal","Germany",51.24225,7.158186,1
"Zwolle","Netherlands",52.54429,6.09052,1
